{"id":"line:TBT:61","name":"Tram C","code":"C","type":"Tramway","routes":[{"id":"route:TBT:61","name":"BORDEAUX Parc des Expositions \/ Gare de Blanquefort","start":"BORDEAUX Parc des Expositions \/ Gare de Blanquefort","end":"Parc des Expositions","stopPoints":[{"id":"stop_point:TBT:SP:7351","name":"Carle Vernet","fullLabel":"Carle Vernet (Bordeaux)","latitude":"44.8199110","longitude":"-0.5504750","externalCode":"7351","hasWheelchairBoarding":true,"city":"Bordeaux","stopAreaId":"stop_area:TBT:SA:TVERNT"},{"id":"stop_point:TBT:SP:7723","name":"Villenave Pyr\u00e9n\u00e9es","fullLabel":"Villenave Pyr\u00e9n\u00e9es (Villenave-d'Ornon)","latitude":"44.7743410","longitude":"-0.5649050","externalCode":"7723","city":"Villenave-d'Ornon","hasWheelchairBoarding":true,"stopAreaId":"stop_area:TBT:SA:TLPYREN"},{"id":"stop_point:TBT:SP:7721","name":"Villenave-Centre Pont de la Maye","fullLabel":"Villenave-Centre Pont de la Maye (Villenave-d'Ornon)","latitude":"44.7823920","longitude":"-0.5662130","externalCode":"7721","hasWheelchairBoarding":true,"city":"Villenave-d'Ornon","stopAreaId":"stop_area:TBT:SA:TBRIAND"},{"id":"stop_point:TBT:SP:7402","name":"Lyc\u00e9e Vaclav Havel","fullLabel":"Lyc\u00e9e Vaclav Havel (B\u00e8gles)","latitude":"44.7866280","longitude":"-0.5662280","externalCode":"7402","hasWheelchairBoarding":true,"city":"B\u00e8gles","stopAreaId":"stop_area:TBT:SA:THAVEL"},{"id":"stop_point:TBT:SP:7400","name":"Parc de Mussonville","fullLabel":"Parc de Mussonville (B\u00e8gles)","latitude":"44.7939700","longitude":"-0.5595940","externalCode":"7400","hasWheelchairBoarding":true,"city":"B\u00e8gles","stopAreaId":"stop_area:TBT:SA:TPMUSS"},{"id":"stop_point:TBT:SP:7398","name":"Gare de b\u00e8gles","fullLabel":"Gare de b\u00e8gles (B\u00e8gles)","latitude":"44.7982110","longitude":"-0.5518380","externalCode":"7398","hasWheelchairBoarding":true,"city":"B\u00e8gles","stopAreaId":"stop_area:TBT:SA:TDORGAT"},{"id":"stop_point:TBT:SP:7396","name":"Calais - Centujean","fullLabel":"Calais - Centujean (B\u00e8gles)","latitude":"44.8029100","longitude":"-0.5519950","externalCode":"7396","hasWheelchairBoarding":true,"city":"B\u00e8gles","stopAreaId":"stop_area:TBT:SA:TCALAIS"},{"id":"stop_point:TBT:SP:7394","name":"Stade Musard","fullLabel":"Stade Musard (B\u00e8gles)","latitude":"44.8080170","longitude":"-0.5515330","externalCode":"7394","hasWheelchairBoarding":true,"city":"B\u00e8gles","stopAreaId":"stop_area:TBT:SA:TMUSARD"},{"id":"stop_point:TBT:SP:7392","name":"La Belle Rose","fullLabel":"La Belle Rose (B\u00e8gles)","latitude":"44.8111450","longitude":"-0.5512370","externalCode":"7392","hasWheelchairBoarding":true,"city":"B\u00e8gles","stopAreaId":"stop_area:TBT:SA:TBROSE"},{"id":"stop_point:TBT:SP:5438","name":"Terres Neuves","fullLabel":"Terres Neuves (B\u00e8gles)","latitude":"44.8152760","longitude":"-0.5508650","externalCode":"5438","hasWheelchairBoarding":true,"city":"B\u00e8gles","stopAreaId":"stop_area:TBT:SA:TNEUVE"},{"id":"stop_point:TBT:SP:5437","name":"Carle Vernet","fullLabel":"Carle Vernet (Bordeaux)","latitude":"44.8198510","longitude":"-0.5503950","externalCode":"5437","hasWheelchairBoarding":true,"city":"Bordeaux","stopAreaId":"stop_area:TBT:SA:TVERNT"},{"id":"stop_point:TBT:SP:5434","name":"Belcier","fullLabel":"Belcier (Bordeaux)","latitude":"44.8225530","longitude":"-0.5521360","externalCode":"5434","hasWheelchairBoarding":true,"city":"Bordeaux","stopAreaId":"stop_area:TBT:SA:TBELCI"},{"id":"stop_point:TBT:SP:3765","name":"Gare Saint-Jean","fullLabel":"Gare Saint-Jean (Bordeaux)","latitude":"44.8259180","longitude":"-0.5568070","externalCode":"3765","hasWheelchairBoarding":true,"city":"Bordeaux","stopAreaId":"stop_area:TBT:SA:TSJEAN"},{"id":"stop_point:TBT:SP:3766","name":"Tauzia","fullLabel":"Tauzia (Bordeaux)","latitude":"44.8290880","longitude":"-0.5585530","externalCode":"3766","hasWheelchairBoarding":true,"city":"Bordeaux","stopAreaId":"stop_area:TBT:SA:TTAUZI"},{"id":"stop_point:TBT:SP:3768","name":"Sainte-Croix","fullLabel":"Sainte-Croix (Bordeaux)","latitude":"44.8318720","longitude":"-0.5594380","externalCode":"3768","hasWheelchairBoarding":true,"city":"Bordeaux","stopAreaId":"stop_area:TBT:SA:TCROIX"},{"id":"stop_point:TBT:SP:3770","name":"Saint-Michel","fullLabel":"Saint-Michel (Bordeaux)","latitude":"44.8344940","longitude":"-0.5633790","externalCode":"3770","hasWheelchairBoarding":true,"city":"Bordeaux","stopAreaId":"stop_area:TBT:SA:TSMICH"},{"id":"stop_point:TBT:SP:3772","name":"Porte de Bourgogne","fullLabel":"Porte de Bourgogne (Bordeaux)","latitude":"44.8371910","longitude":"-0.5664000","externalCode":"3772","hasWheelchairBoarding":true,"city":"Bordeaux","stopAreaId":"stop_area:TBT:SA:TBRGA"},{"id":"stop_point:TBT:SP:3774","name":"Place de la Bourse","fullLabel":"Place de la Bourse (Bordeaux)","latitude":"44.8415830","longitude":"-0.5696560","externalCode":"3774","hasWheelchairBoarding":true,"city":"Bordeaux","stopAreaId":"stop_area:TBT:SA:TBOURS"},{"id":"stop_point:TBT:SP:3776","name":"Quinconces","fullLabel":"Quinconces (Bordeaux)","latitude":"44.8440270","longitude":"-0.5738270","externalCode":"3776","hasWheelchairBoarding":true,"city":"Bordeaux","stopAreaId":"stop_area:TBT:SA:TQUIN_B"},{"id":"stop_point:TBT:SP:5394","name":"Jardin Public","fullLabel":"Jardin Public (Bordeaux)","latitude":"44.8482230","longitude":"-0.5753230","externalCode":"5394","hasWheelchairBoarding":true,"city":"Bordeaux","stopAreaId":"stop_area:TBT:SA:TJPUBL"},{"id":"stop_point:TBT:SP:5396","name":"Paul Doumer","fullLabel":"Paul Doumer (Bordeaux)","latitude":"44.8519670","longitude":"-0.5740920","externalCode":"5396","hasWheelchairBoarding":true,"city":"Bordeaux","stopAreaId":"stop_area:TBT:SA:TPDOUM"},{"id":"stop_point:TBT:SP:5398","name":"Camille Godard","fullLabel":"Camille Godard (Bordeaux)","latitude":"44.8547040","longitude":"-0.5744690","externalCode":"5398","hasWheelchairBoarding":true,"city":"Bordeaux","stopAreaId":"stop_area:TBT:SA:TGODAR"},{"id":"stop_point:TBT:SP:5400","name":"Emile Counord","fullLabel":"Emile Counord (Bordeaux)","latitude":"44.8586740","longitude":"-0.5748870","externalCode":"5400","hasWheelchairBoarding":true,"city":"Bordeaux","stopAreaId":"stop_area:TBT:SA:TECOUN"},{"id":"stop_point:TBT:SP:5402","name":"Grand Parc","fullLabel":"Grand Parc (Bordeaux)","latitude":"44.8623290","longitude":"-0.5752970","externalCode":"5402","hasWheelchairBoarding":true,"city":"Bordeaux","stopAreaId":"stop_area:TBT:SA:TGPARC"},{"id":"stop_point:TBT:SP:5412","name":"Place Ravezies - le Bouscat","fullLabel":"Place Ravezies - le Bouscat (Bordeaux)","latitude":"44.8671250","longitude":"-0.5758180","externalCode":"5412","hasWheelchairBoarding":true,"city":"Bordeaux","stopAreaId":"stop_area:TBT:SA:TRAVESI"},{"id":"stop_point:TBT:SP:7343","name":"Cracovie","fullLabel":"Cracovie (Bordeaux)","latitude":"44.8710230","longitude":"-0.5762310","externalCode":"7343","hasWheelchairBoarding":true,"city":"Bordeaux","stopAreaId":"stop_area:TBT:SA:TCRACOT"},{"id":"stop_point:TBT:SP:5414","name":"Les Aubiers","fullLabel":"Les Aubiers (Bordeaux)","latitude":"44.8739900","longitude":"-0.5742020","externalCode":"5414","hasWheelchairBoarding":true,"city":"Bordeaux","stopAreaId":"stop_area:TBT:SA:TAUBI1C"},{"id":"stop_point:TBT:SP:7131","name":"Berges du Lac","fullLabel":"Berges du Lac (Bordeaux)","latitude":"44.8790670","longitude":"-0.5707730","externalCode":"7131","hasWheelchairBoarding":true,"city":"Bordeaux","stopAreaId":"stop_area:TBC:SA:BBERGLA"},{"id":"stop_point:TBT:SP:7323","name":"Quarante Journaux","fullLabel":"Quarante Journaux (Bordeaux)","latitude":"44.8831140","longitude":"-0.5704600","externalCode":"7323","hasWheelchairBoarding":true,"city":"Bordeaux","stopAreaId":"stop_area:TBT:SA:T40JOU"},{"id":"stop_point:TBT:SP:7325","name":"Palais des congr\u00e8s","fullLabel":"Palais des congr\u00e8s (Bordeaux)","latitude":"44.8892960","longitude":"-0.5671260","externalCode":"7325","hasWheelchairBoarding":true,"city":"Bordeaux","stopAreaId":"stop_area:TBT:SA:TPCONGR"},{"id":"stop_point:TBT:SP:7327","name":"Parc des Expositions","fullLabel":"Parc des Expositions (Bordeaux)","latitude":"44.8933400","longitude":"-0.5657990","externalCode":"7327","city":"Bordeaux","hasWheelchairBoarding":false,"stopAreaId":"stop_area:TBT:SA:TTEXPO"},{"id":"stop_point:TBT:SP:7711","name":"La Vache","fullLabel":"La Vache (Bruges)","latitude":"44.8723310","longitude":"-0.5909920","externalCode":"7711","hasWheelchairBoarding":true,"city":"Bruges","stopAreaId":"stop_area:TBT:SA:TVACHE"},{"id":"stop_point:TBT:SP:7713","name":"Ausone","fullLabel":"Ausone (Bruges)","latitude":"44.8792960","longitude":"-0.6030110","externalCode":"7713","hasWheelchairBoarding":true,"city":"Bruges","stopAreaId":"stop_area:TBT:SA:TBRUSUD"},{"id":"stop_point:TBT:SP:7715","name":"Gare de Bruges","fullLabel":"Gare de Bruges (Bruges)","latitude":"44.8877520","longitude":"-0.6098680","externalCode":"7715","hasWheelchairBoarding":true,"city":"Bruges","stopAreaId":"stop_area:TBT:SA:TBRUGAR"},{"id":"stop_point:TBT:SP:7717","name":"Frankton","fullLabel":"Frankton (Blanquefort)","latitude":"44.9074590","longitude":"-0.6191270","externalCode":"7717","hasWheelchairBoarding":true,"city":"Blanquefort","stopAreaId":"stop_area:TBT:SA:TCBLANQ"},{"id":"stop_point:TBT:SP:7719","name":"Gare de Blanquefort","fullLabel":"Gare de Blanquefort (Blanquefort)","latitude":"44.9167960","longitude":"-0.6235730","externalCode":"7719","city":"Blanquefort","hasWheelchairBoarding":true,"stopAreaId":"stop_area:TBT:SA:TGABLAN"}],"externalCode":"61","stopPointOrder":["stop_point:TBT:SP:7351","stop_point:TBT:SP:7723","stop_point:TBT:SP:7721","stop_point:TBT:SP:7402","stop_point:TBT:SP:7400","stop_point:TBT:SP:7398","stop_point:TBT:SP:7396","stop_point:TBT:SP:7394","stop_point:TBT:SP:7392","stop_point:TBT:SP:5438","stop_point:TBT:SP:5437","stop_point:TBT:SP:5434","stop_point:TBT:SP:3765","stop_point:TBT:SP:3766","stop_point:TBT:SP:3768","stop_point:TBT:SP:3770","stop_point:TBT:SP:3772","stop_point:TBT:SP:3774","stop_point:TBT:SP:3776","stop_point:TBT:SP:5394","stop_point:TBT:SP:5396","stop_point:TBT:SP:5398","stop_point:TBT:SP:5400","stop_point:TBT:SP:5402","stop_point:TBT:SP:5412","stop_point:TBT:SP:7343","stop_point:TBT:SP:5414","stop_point:TBT:SP:7131","stop_point:TBT:SP:7323","stop_point:TBT:SP:7325","stop_point:TBT:SP:7327","stop_point:TBT:SP:7711","stop_point:TBT:SP:7713","stop_point:TBT:SP:7715","stop_point:TBT:SP:7717","stop_point:TBT:SP:7719"]},{"id":"route:TBT:61_R","name":"VILLENAVE Pyr\u00e9n\u00e9es","start":"VILLENAVE Pyr\u00e9n\u00e9es","end":"Villenave Pyr\u00e9n\u00e9es","stopPoints":[{"id":"stop_point:TBT:SP:7328","name":"Parc des Expositions","fullLabel":"Parc des Expositions (Bordeaux)","latitude":"44.8932670","longitude":"-0.5658320","externalCode":"7328","hasWheelchairBoarding":true,"city":"Bordeaux","stopAreaId":"stop_area:TBT:SA:TTEXPO"},{"id":"stop_point:TBT:SP:7326","name":"Palais des Congr\u00e8s","fullLabel":"Palais des Congr\u00e8s (Bordeaux)","latitude":"44.8892570","longitude":"-0.5672380","externalCode":"7326","hasWheelchairBoarding":true,"city":"Bordeaux","stopAreaId":"stop_area:TBT:SA:TPCONGR"},{"id":"stop_point:TBT:SP:7324","name":"Quarante Journaux","fullLabel":"Quarante Journaux (Bordeaux)","latitude":"44.8830640","longitude":"-0.5703430","externalCode":"7324","hasWheelchairBoarding":true,"city":"Bordeaux","stopAreaId":"stop_area:TBT:SA:T40JOU"},{"id":"stop_point:TBT:SP:7132","name":"Berges du Lac","fullLabel":"Berges du Lac (Bordeaux)","latitude":"44.8789650","longitude":"-0.5708430","externalCode":"7132","hasWheelchairBoarding":true,"city":"Bordeaux","stopAreaId":"stop_area:TBC:SA:BBERGLA"},{"id":"stop_point:TBT:SP:5415","name":"Les Aubiers","fullLabel":"Les Aubiers (Bordeaux)","latitude":"44.8740130","longitude":"-0.5743300","externalCode":"5415","hasWheelchairBoarding":true,"city":"Bordeaux","stopAreaId":"stop_area:TBT:SA:TAUBI1C"},{"id":"stop_point:TBT:SP:7719","name":"Gare de Blanquefort","fullLabel":"Gare de Blanquefort (Blanquefort)","latitude":"44.9167960","longitude":"-0.6235730","externalCode":"7719","city":"Blanquefort","hasWheelchairBoarding":true,"stopAreaId":"stop_area:TBT:SA:TGABLAN"},{"id":"stop_point:TBT:SP:7718","name":"Frankton","fullLabel":"Frankton (Blanquefort)","latitude":"44.9070570","longitude":"-0.6190370","externalCode":"7718","hasWheelchairBoarding":true,"city":"Blanquefort","stopAreaId":"stop_area:TBT:SA:TCBLANQ"},{"id":"stop_point:TBT:SP:7716","name":"Gare de Bruges","fullLabel":"Gare de Bruges (Bruges)","latitude":"44.8873500","longitude":"-0.6097660","externalCode":"7716","hasWheelchairBoarding":true,"city":"Bruges","stopAreaId":"stop_area:TBT:SA:TBRUGAR"},{"id":"stop_point:TBT:SP:7714","name":"Ausone","fullLabel":"Ausone (Bruges)","latitude":"44.8791960","longitude":"-0.6024590","externalCode":"7714","hasWheelchairBoarding":true,"city":"Bruges","stopAreaId":"stop_area:TBT:SA:TBRUSUD"},{"id":"stop_point:TBT:SP:7712","name":"La Vache","fullLabel":"La Vache (Bruges)","latitude":"44.8720840","longitude":"-0.5905320","externalCode":"7712","hasWheelchairBoarding":true,"city":"Bruges","stopAreaId":"stop_area:TBT:SA:TVACHE"},{"id":"stop_point:TBT:SP:7344","name":"Cracovie","fullLabel":"Cracovie (Bordeaux)","latitude":"44.8709320","longitude":"-0.5762630","externalCode":"7344","hasWheelchairBoarding":true,"city":"Bordeaux","stopAreaId":"stop_area:TBT:SA:TCRACOT"},{"id":"stop_point:TBT:SP:5413","name":"Place Ravezies - le Bouscat","fullLabel":"Place Ravezies - le Bouscat (Bordeaux)","latitude":"44.8670700","longitude":"-0.5758520","externalCode":"5413","hasWheelchairBoarding":true,"city":"Bordeaux","stopAreaId":"stop_area:TBT:SA:TRAVESI"},{"id":"stop_point:TBT:SP:5403","name":"Grand Parc","fullLabel":"Grand Parc (Bordeaux)","latitude":"44.8622640","longitude":"-0.5753430","externalCode":"5403","hasWheelchairBoarding":true,"city":"Bordeaux","stopAreaId":"stop_area:TBT:SA:TGPARC"},{"id":"stop_point:TBT:SP:5401","name":"Emile Counord","fullLabel":"Emile Counord (Bordeaux)","latitude":"44.8586270","longitude":"-0.5749340","externalCode":"5401","hasWheelchairBoarding":true,"city":"Bordeaux","stopAreaId":"stop_area:TBT:SA:TECOUN"},{"id":"stop_point:TBT:SP:5399","name":"Camille Godard","fullLabel":"Camille Godard (Bordeaux)","latitude":"44.8546400","longitude":"-0.5745030","externalCode":"5399","hasWheelchairBoarding":true,"city":"Bordeaux","stopAreaId":"stop_area:TBT:SA:TGODAR"},{"id":"stop_point:TBT:SP:5397","name":"Paul Doumer","fullLabel":"Paul Doumer (Bordeaux)","latitude":"44.8518940","longitude":"-0.5741130","externalCode":"5397","hasWheelchairBoarding":true,"city":"Bordeaux","stopAreaId":"stop_area:TBT:SA:TPDOUM"},{"id":"stop_point:TBT:SP:5395","name":"Jardin Public","fullLabel":"Jardin Public (Bordeaux)","latitude":"44.8481860","longitude":"-0.5753590","externalCode":"5395","hasWheelchairBoarding":true,"city":"Bordeaux","stopAreaId":"stop_area:TBT:SA:TJPUBL"},{"id":"stop_point:TBT:SP:5404","name":"Quinconces","fullLabel":"Quinconces (Bordeaux)","latitude":"44.8440120","longitude":"-0.5737120","externalCode":"5404","hasWheelchairBoarding":true,"city":"Bordeaux","stopAreaId":"stop_area:TBT:SA:TQUIN_B"},{"id":"stop_point:TBT:SP:3775","name":"Place de la Bourse","fullLabel":"Place de la Bourse (Bordeaux)","latitude":"44.8415200","longitude":"-0.5696770","externalCode":"3775","hasWheelchairBoarding":true,"city":"Bordeaux","stopAreaId":"stop_area:TBT:SA:TBOURS"},{"id":"stop_point:TBT:SP:3773","name":"Porte de Bourgogne","fullLabel":"Porte de Bourgogne (Bordeaux)","latitude":"44.8371370","longitude":"-0.5663840","externalCode":"3773","hasWheelchairBoarding":true,"city":"Bordeaux","stopAreaId":"stop_area:TBT:SA:TBRGA"},{"id":"stop_point:TBT:SP:3771","name":"Saint-Michel","fullLabel":"Saint-Michel (Bordeaux)","latitude":"44.8344580","longitude":"-0.5633890","externalCode":"3771","hasWheelchairBoarding":true,"city":"Bordeaux","stopAreaId":"stop_area:TBT:SA:TSMICH"},{"id":"stop_point:TBT:SP:3769","name":"Sainte-Croix","fullLabel":"Sainte-Croix (Bordeaux)","latitude":"44.8318090","longitude":"-0.5594220","externalCode":"3769","hasWheelchairBoarding":true,"city":"Bordeaux","stopAreaId":"stop_area:TBT:SA:TCROIX"},{"id":"stop_point:TBT:SP:3767","name":"Tauzia","fullLabel":"Tauzia (Bordeaux)","latitude":"44.8290350","longitude":"-0.5585360","externalCode":"3767","hasWheelchairBoarding":true,"city":"Bordeaux","stopAreaId":"stop_area:TBT:SA:TTAUZI"},{"id":"stop_point:TBT:SP:5433","name":"Gare Saint-Jean","fullLabel":"Gare Saint-Jean (Bordeaux)","latitude":"44.8259170","longitude":"-0.5568450","externalCode":"5433","hasWheelchairBoarding":true,"city":"Bordeaux","stopAreaId":"stop_area:TBT:SA:TSJEAN"},{"id":"stop_point:TBT:SP:5435","name":"Belcier","fullLabel":"Belcier (Bordeaux)","latitude":"44.8225330","longitude":"-0.5521850","externalCode":"5435","hasWheelchairBoarding":true,"city":"Bordeaux","stopAreaId":"stop_area:TBT:SA:TBELCI"},{"id":"stop_point:TBT:SP:7351","name":"Carle Vernet","fullLabel":"Carle Vernet (Bordeaux)","latitude":"44.8199110","longitude":"-0.5504750","externalCode":"7351","hasWheelchairBoarding":true,"city":"Bordeaux","stopAreaId":"stop_area:TBT:SA:TVERNT"},{"id":"stop_point:TBT:SP:5436","name":"Carle Vernet","fullLabel":"Carle Vernet (Bordeaux)","latitude":"44.8198580","longitude":"-0.5504460","externalCode":"5436","hasWheelchairBoarding":true,"city":"Bordeaux","stopAreaId":"stop_area:TBT:SA:TVERNT"},{"id":"stop_point:TBT:SP:5439","name":"Terres Neuves","fullLabel":"Terres Neuves (B\u00e8gles)","latitude":"44.8153380","longitude":"-0.5508820","externalCode":"5439","hasWheelchairBoarding":true,"city":"B\u00e8gles","stopAreaId":"stop_area:TBT:SA:TNEUVE"},{"id":"stop_point:TBT:SP:7391","name":"La Belle Rose","fullLabel":"La Belle Rose (B\u00e8gles)","latitude":"44.8111160","longitude":"-0.5512860","externalCode":"7391","hasWheelchairBoarding":true,"city":"B\u00e8gles","stopAreaId":"stop_area:TBT:SA:TBROSE"},{"id":"stop_point:TBT:SP:7393","name":"Stade Musard","fullLabel":"Stade Musard (B\u00e8gles)","latitude":"44.8079530","longitude":"-0.5515550","externalCode":"7393","hasWheelchairBoarding":true,"city":"B\u00e8gles","stopAreaId":"stop_area:TBT:SA:TMUSARD"},{"id":"stop_point:TBT:SP:7395","name":"Calais - Centujean","fullLabel":"Calais - Centujean (B\u00e8gles)","latitude":"44.8028730","longitude":"-0.5520440","externalCode":"7395","hasWheelchairBoarding":true,"city":"B\u00e8gles","stopAreaId":"stop_area:TBT:SA:TCALAIS"},{"id":"stop_point:TBT:SP:7397","name":"Gare de b\u00e8gles","fullLabel":"Gare de b\u00e8gles (B\u00e8gles)","latitude":"44.7982070","longitude":"-0.5519510","externalCode":"7397","city":"B\u00e8gles","hasWheelchairBoarding":true,"stopAreaId":"stop_area:TBT:SA:TDORGAT"},{"id":"stop_point:TBT:SP:7399","name":"Parc de Mussonville","fullLabel":"Parc de Mussonville (B\u00e8gles)","latitude":"44.7939410","longitude":"-0.5596550","externalCode":"7399","hasWheelchairBoarding":true,"city":"B\u00e8gles","stopAreaId":"stop_area:TBT:SA:TPMUSS"},{"id":"stop_point:TBT:SP:7401","name":"Lyc\u00e9e Vaclav Havel","fullLabel":"Lyc\u00e9e Vaclav Havel (B\u00e8gles)","latitude":"44.7865730","longitude":"-0.5662630","externalCode":"7401","hasWheelchairBoarding":false,"city":"B\u00e8gles","stopAreaId":"stop_area:TBT:SA:THAVEL"},{"id":"stop_point:TBT:SP:7722","name":"Villenave-Centre Pont de la Maye","fullLabel":"Villenave-Centre Pont de la Maye (Villenave-d'Ornon)","latitude":"44.7820220","longitude":"-0.5662270","externalCode":"7722","hasWheelchairBoarding":true,"city":"Villenave-d'Ornon","stopAreaId":"stop_area:TBT:SA:TBRIAND"},{"id":"stop_point:TBT:SP:7723","name":"Villenave Pyr\u00e9n\u00e9es","fullLabel":"Villenave Pyr\u00e9n\u00e9es (Villenave-d'Ornon)","latitude":"44.7743410","longitude":"-0.5649050","externalCode":"7723","city":"Villenave-d'Ornon","hasWheelchairBoarding":true,"stopAreaId":"stop_area:TBT:SA:TLPYREN"}],"externalCode":"61","stopPointOrder":["stop_point:TBT:SP:7328","stop_point:TBT:SP:7326","stop_point:TBT:SP:7324","stop_point:TBT:SP:7132","stop_point:TBT:SP:5415","stop_point:TBT:SP:7719","stop_point:TBT:SP:7718","stop_point:TBT:SP:7716","stop_point:TBT:SP:7714","stop_point:TBT:SP:7712","stop_point:TBT:SP:7344","stop_point:TBT:SP:5413","stop_point:TBT:SP:5403","stop_point:TBT:SP:5401","stop_point:TBT:SP:5399","stop_point:TBT:SP:5397","stop_point:TBT:SP:5395","stop_point:TBT:SP:5404","stop_point:TBT:SP:3775","stop_point:TBT:SP:3773","stop_point:TBT:SP:3771","stop_point:TBT:SP:3769","stop_point:TBT:SP:3767","stop_point:TBT:SP:5433","stop_point:TBT:SP:5435","stop_point:TBT:SP:7351","stop_point:TBT:SP:5436","stop_point:TBT:SP:5439","stop_point:TBT:SP:7391","stop_point:TBT:SP:7393","stop_point:TBT:SP:7395","stop_point:TBT:SP:7397","stop_point:TBT:SP:7399","stop_point:TBT:SP:7401","stop_point:TBT:SP:7722","stop_point:TBT:SP:7723"]}],"externalCode":"61","isSpecial":false,"isChartered":false,"isHidden":false,"isArchived":false,"isPictoCrossedActif":false,"color":"D35098","textColor":"FFFFFF","picto":"https:\/\/ws.infotbm.com\/uploads\/network\/line\/images\/60a681d230e43_C.svg","pictoFile":null,"pictoFileCrossed":null,"lineSchedules":[{"title":null,"begin":"2021-08-30T00:00:00+02:00","end":"2022-07-03T00:00:00+02:00","frequency":"3 \u00e0 5 mn (sam :matin 7 \u00e0 15 mn - apr\u00e9s midi: 5mn \/ dim :matin 10 \u00e0 20mn - apr\u00e9s midi: 7 \u00e0 8mn)","navigationAmplitude":"5h \u00e0 00h00 (1h les jeu,ven,sam)","services":null,"pdf":"https:\/\/ws.infotbm.com\/uploads\/network\/line\/files\/610a40b99dcf7_tram_C_sept_2021_HD.pdf"},{"title":null,"begin":"2021-07-05T00:00:00+02:00","end":"2021-08-29T00:00:00+02:00","frequency":"6 \u00e0 8 mn (sam :matin 10 \u00e0 15 mn - apr\u00e9s midi: 7 \u00e0 10 mn \/ dim :matin 15 \u00e0 20mn - apr\u00e9s midi: 10 \u00e0 15 mn)","navigationAmplitude":"de 5h \u00e0 0h00 (1h les jeu, ven, sam)","services":null,"pdf":"https:\/\/ws.infotbm.com\/uploads\/network\/line\/files\/610a410256397_tram_C_2021_\u00e9t\u00e9_HD.pdf"}],"lineMaps":[{"start":"2021-08-02T00:00:00+02:00","end":null,"thermometer":"https:\/\/ws.infotbm.com\/uploads\/network\/line\/files\/610a40b99b940_TRAM C_BIS.pdf","thermometerImage":"https:\/\/ws.infotbm.com\/uploads\/network\/line\/files\/610a40b99d4c4_TRAM C_BIS.png","kml":"https:\/\/ws.infotbm.com\/uploads\/network\/line\/kml\/5ddfaf19d396c_C.kmz"}],"lineKmls":[{"start":"2020-03-02T00:00:00+01:00","end":null,"kml":"https:\/\/ws.infotbm.com\/uploads\/network\/line\/kml\/5ddfaf19d396c_C.kmz"}],"bgColor":"D35098","futureLineMaps":[{"start":"2021-08-02T00:00:00+02:00","end":null,"thermometer":"https:\/\/ws.infotbm.com\/uploads\/network\/line\/files\/610a40b99b940_TRAM C_BIS.pdf","thermometerImage":"https:\/\/ws.infotbm.com\/uploads\/network\/line\/files\/610a40b99d4c4_TRAM C_BIS.png","kml":"https:\/\/ws.infotbm.com\/uploads\/network\/line\/kml\/5ddfaf19d396c_C.kmz"}],"terminus":[{"route":"route:TBT:61","stopPoints":[{"id":"stop_point:TBT:SP:7327","name":"Parc des Expositions","fullLabel":"Parc des Expositions (Bordeaux)","latitude":"44.8933400","longitude":"-0.5657990","externalCode":"7327","city":"Bordeaux","hasWheelchairBoarding":false},{"id":"stop_point:TBT:SP:7719","name":"Gare de Blanquefort","fullLabel":"Gare de Blanquefort (Blanquefort)","latitude":"44.9167960","longitude":"-0.6235730","externalCode":"7719","city":"Blanquefort","hasWheelchairBoarding":true}]},{"route":"route:TBT:61_R","stopPoints":[{"id":"stop_point:TBT:SP:7723","name":"Villenave Pyr\u00e9n\u00e9es","fullLabel":"Villenave Pyr\u00e9n\u00e9es (Villenave-d'Ornon)","latitude":"44.7743410","longitude":"-0.5649050","externalCode":"7723","city":"Villenave-d'Ornon","hasWheelchairBoarding":true},{"id":"stop_point:TBT:SP:7397","name":"Gare de b\u00e8gles","fullLabel":"Gare de b\u00e8gles (B\u00e8gles)","latitude":"44.7982070","longitude":"-0.5519510","externalCode":"7397","city":"B\u00e8gles","hasWheelchairBoarding":true}]}]}