{"id":"line:TBC:10","name":"Lianes 10","code":"10","type":"Bus","routes":[{"id":"route:TBC:10","name":"GRADIGNAN  Beausoleil","start":"GRADIGNAN  Beausoleil","end":"","stopPoints":[{"id":"stop_point:TBC:SP:4124","name":"Jardin Botanique Terminus","fullLabel":"Jardin Botanique Terminus (Bordeaux)","latitude":"44.8429700","longitude":"-0.5562150","externalCode":"4124","city":"Bordeaux","hasWheelchairBoarding":true,"stopAreaId":"stop_area:TBT:SA:TJARDI"},{"id":"stop_point:TBC:SP:8132","name":"Stalingrad (Tram A)","fullLabel":"Stalingrad (Tram A) (Bordeaux)","latitude":"44.8405860","longitude":"-0.5600160","externalCode":"8132","hasWheelchairBoarding":true,"city":"Bordeaux","stopAreaId":"stop_area:TBT:SA:TSTALIT"},{"id":"stop_point:TBC:SP:2263","name":"P\u00f4le emploi Bastide","fullLabel":"P\u00f4le emploi Bastide (Bordeaux)","latitude":"44.8366990","longitude":"-0.5558810","externalCode":"2263","hasWheelchairBoarding":false,"city":"Bordeaux","stopAreaId":"stop_area:TBC:SA:BASSEDI"},{"id":"stop_point:TBC:SP:3585","name":"Ste Croix","fullLabel":"Ste Croix (Bordeaux)","latitude":"44.8307130","longitude":"-0.5593140","externalCode":"3585","hasWheelchairBoarding":false,"city":"Bordeaux","stopAreaId":"stop_area:TBC:SA:BPALUD"},{"id":"stop_point:TBC:SP:534","name":"Peyronnet (c\u00f4t\u00e9 Poste)","fullLabel":"Peyronnet (c\u00f4t\u00e9 Poste) (Bordeaux)","latitude":"44.8279740","longitude":"-0.5601540","externalCode":"534","hasWheelchairBoarding":true,"city":"Bordeaux","stopAreaId":"stop_area:TBC:SA:BPEYRO"},{"id":"stop_point:TBC:SP:5770","name":"Gare Saint Jean (rue St Vincent de Paul)","fullLabel":"Gare Saint Jean (rue St Vincent de Paul) (Bordeaux)","latitude":"44.8264540","longitude":"-0.5575240","externalCode":"5770","hasWheelchairBoarding":true,"city":"Bordeaux","stopAreaId":"stop_area:TBT:SA:TSJEAN"},{"id":"stop_point:TBC:SP:5796","name":"Billaudel","fullLabel":"Billaudel (Bordeaux)","latitude":"44.8208330","longitude":"-0.5610810","externalCode":"5796","hasWheelchairBoarding":false,"city":"Bordeaux","stopAreaId":"stop_area:TBC:SA:BBILLAU"},{"id":"stop_point:TBC:SP:5793","name":"Rue de B\u00e8gles","fullLabel":"Rue de B\u00e8gles (Bordeaux)","latitude":"44.8176110","longitude":"-0.5642960","externalCode":"5793","hasWheelchairBoarding":false,"city":"Bordeaux","stopAreaId":"stop_area:TBC:SA:BRDBEGL"},{"id":"stop_point:TBC:SP:1224","name":"Bertin","fullLabel":"Bertin (Bordeaux)","latitude":"44.8160510","longitude":"-0.5657290","externalCode":"1224","hasWheelchairBoarding":false,"city":"Bordeaux","stopAreaId":"stop_area:TBC:SA:BBERTI"},{"id":"stop_point:TBC:SP:663","name":"Barri\u00e8re de B\u00e8gles","fullLabel":"Barri\u00e8re de B\u00e8gles (Bordeaux)","latitude":"44.8140060","longitude":"-0.5648770","externalCode":"663","hasWheelchairBoarding":false,"city":"Bordeaux","stopAreaId":"stop_area:TBC:SA:BBBEGL"},{"id":"stop_point:TBC:SP:2238","name":"Vaucouleurs","fullLabel":"Vaucouleurs (Bordeaux)","latitude":"44.8139670","longitude":"-0.5674830","externalCode":"2238","hasWheelchairBoarding":true,"city":"Bordeaux","stopAreaId":"stop_area:TBC:SA:BVAUCOU"},{"id":"stop_point:TBC:SP:5935","name":"Barri\u00e8re de Toulouse (Bd Albert 1er)","fullLabel":"Barri\u00e8re de Toulouse (Bd Albert 1er) (Bordeaux)","latitude":"44.8147040","longitude":"-0.5720250","externalCode":"5935","hasWheelchairBoarding":true,"city":"Bordeaux","stopAreaId":"stop_area:TBC:SA:BBTOUL2"},{"id":"stop_point:TBC:SP:2400","name":"Boulevard Roosevelt","fullLabel":"Boulevard Roosevelt (Bordeaux)","latitude":"44.8156860","longitude":"-0.5739990","externalCode":"2400","hasWheelchairBoarding":true,"city":"Bordeaux","stopAreaId":"stop_area:TBC:SA:BROOSEV"},{"id":"stop_point:TBC:SP:3217","name":"Pont de Cauder\u00e8s","fullLabel":"Pont de Cauder\u00e8s (Talence)","latitude":"44.8167890","longitude":"-0.5763860","externalCode":"3217","hasWheelchairBoarding":true,"city":"Talence","stopAreaId":"stop_area:TBC:SA:BPCAUDE"},{"id":"stop_point:TBC:SP:3219","name":"Duplantier","fullLabel":"Duplantier (Talence)","latitude":"44.8146680","longitude":"-0.5806700","externalCode":"3219","hasWheelchairBoarding":true,"city":"Talence","stopAreaId":"stop_area:TBC:SA:BDUPLAN"},{"id":"stop_point:TBC:SP:3220","name":"Chemin de Suzon","fullLabel":"Chemin de Suzon (Talence)","latitude":"44.8117930","longitude":"-0.5823610","externalCode":"3220","hasWheelchairBoarding":true,"city":"Talence","stopAreaId":"stop_area:TBC:SA:BCSUZO"},{"id":"stop_point:TBC:SP:6505","name":"Les Harmonies","fullLabel":"Les Harmonies (Talence)","latitude":"44.8108910","longitude":"-0.5848730","externalCode":"6505","hasWheelchairBoarding":false,"city":"Talence","stopAreaId":"stop_area:TBC:SA:BLAMA40"},{"id":"stop_point:TBC:SP:8101","name":"Mairie de Talence","fullLabel":"Mairie de Talence (Talence)","latitude":"44.8087880","longitude":"-0.5873710","externalCode":"8101","hasWheelchairBoarding":true,"city":"Talence","stopAreaId":"stop_area:TBC:SA:BPARNO"},{"id":"stop_point:TBC:SP:7801","name":"M\u00e9diath\u00e8que (c\u00f4t\u00e9 Ch\u00e2teau Margaut)","fullLabel":"M\u00e9diath\u00e8que (c\u00f4t\u00e9 Ch\u00e2teau Margaut) (Talence)","latitude":"44.8070730","longitude":"-0.5892380","externalCode":"7801","hasWheelchairBoarding":true,"city":"Talence","stopAreaId":"stop_area:TBC:SA:BMEDIA"},{"id":"stop_point:TBC:SP:8791","name":"Peixotto (Tram B)","fullLabel":"Peixotto (Tram B) (Talence)","latitude":"44.8067630","longitude":"-0.5932570","externalCode":"8791","hasWheelchairBoarding":false,"city":"Talence","stopAreaId":"stop_area:TBT:SA:TPEIXOT"},{"id":"stop_point:TBC:SP:1614","name":"Lyc\u00e9e Victor Louis","fullLabel":"Lyc\u00e9e Victor Louis (Talence)","latitude":"44.8029110","longitude":"-0.5933650","externalCode":"1614","hasWheelchairBoarding":true,"city":"Talence","stopAreaId":"stop_area:TBC:SA:BLVLOUI"},{"id":"stop_point:TBC:SP:1671","name":"Avenue de l'Universit\u00e9","fullLabel":"Avenue de l'Universit\u00e9 (Talence)","latitude":"44.8012920","longitude":"-0.5946540","externalCode":"1671","hasWheelchairBoarding":true,"city":"Talence","stopAreaId":"stop_area:TBC:SA:BAUNIV"},{"id":"stop_point:TBC:SP:562","name":"CREPS","fullLabel":"CREPS (Talence)","latitude":"44.7990160","longitude":"-0.5986980","externalCode":"562","hasWheelchairBoarding":true,"city":"Talence","stopAreaId":"stop_area:TBC:SA:BCREPS"},{"id":"stop_point:TBC:SP:475","name":"Ecole de Management","fullLabel":"Ecole de Management (Talence)","latitude":"44.7965620","longitude":"-0.6026420","externalCode":"475","hasWheelchairBoarding":true,"city":"Talence","stopAreaId":"stop_area:TBC:SA:BMANAG"},{"id":"stop_point:TBC:SP:5629","name":"La Paill\u00e8re","fullLabel":"La Paill\u00e8re (Pessac)","latitude":"44.7957090","longitude":"-0.6053210","externalCode":"5629","hasWheelchairBoarding":true,"city":"Pessac","stopAreaId":"stop_area:TBC:SA:BLAPAIL"},{"id":"stop_point:TBC:SP:1254","name":"Bardanac","fullLabel":"Bardanac (Pessac)","latitude":"44.7966020","longitude":"-0.6100110","externalCode":"1254","hasWheelchairBoarding":true,"city":"Pessac","stopAreaId":"stop_area:TBC:SA:BBARDAN"},{"id":"stop_point:TBC:SP:446","name":"Montaigne - Montesquieu","fullLabel":"Montaigne - Montesquieu (Pessac)","latitude":"44.7964250","longitude":"-0.6140380","externalCode":"446","hasWheelchairBoarding":true,"city":"Pessac","stopAreaId":"stop_area:TBC:SA:BMMQUIE"},{"id":"stop_point:TBC:SP:8713","name":"STAPS","fullLabel":"STAPS (Pessac)","latitude":"44.7932700","longitude":"-0.6151890","externalCode":"8713","hasWheelchairBoarding":false,"city":"Pessac","stopAreaId":"stop_area:TBC:SA:BSTAPS"},{"id":"stop_point:TBC:SP:9054","name":"Village 5 Terminus","fullLabel":"Village 5 Terminus (Gradignan)","latitude":"44.7922950","longitude":"-0.6146710","externalCode":"9054","hasWheelchairBoarding":false,"city":"Gradignan","stopAreaId":"stop_area:TBC:SA:BVILLA5"},{"id":"stop_point:TBC:SP:9053","name":"Village 5","fullLabel":"Village 5 (Gradignan)","latitude":"44.7924900","longitude":"-0.6147840","externalCode":"9053","hasWheelchairBoarding":false,"city":"Gradignan","stopAreaId":"stop_area:TBC:SA:BVILLA5"},{"id":"stop_point:TBC:SP:9055","name":"Village 6 IUT","fullLabel":"Village 6 IUT (Gradignan)","latitude":"44.7902870","longitude":"-0.6132500","externalCode":"9055","hasWheelchairBoarding":false,"city":"Gradignan","stopAreaId":"stop_area:TBC:SA:BV6IUT"},{"id":"stop_point:TBC:SP:3440","name":"Eurofac","fullLabel":"Eurofac (Gradignan)","latitude":"44.7871980","longitude":"-0.6104070","externalCode":"3440","hasWheelchairBoarding":true,"city":"Gradignan","stopAreaId":"stop_area:TBC:SA:BEUROF"},{"id":"stop_point:TBC:SP:4105","name":"M\u00e9sanges","fullLabel":"M\u00e9sanges (Gradignan)","latitude":"44.7844190","longitude":"-0.6088240","externalCode":"4105","hasWheelchairBoarding":false,"city":"Gradignan","stopAreaId":"stop_area:TBC:SA:BMESANG"},{"id":"stop_point:TBC:SP:555","name":"Lange","fullLabel":"Lange (Gradignan)","latitude":"44.7817900","longitude":"-0.6079330","externalCode":"555","hasWheelchairBoarding":true,"city":"Gradignan","stopAreaId":"stop_area:TBC:SA:BLANGE2"},{"id":"stop_point:TBC:SP:1621","name":"Cimeti\u00e8re de Gradignan","fullLabel":"Cimeti\u00e8re de Gradignan (Gradignan)","latitude":"44.7789950","longitude":"-0.6096140","externalCode":"1621","hasWheelchairBoarding":true,"city":"Gradignan","stopAreaId":"stop_area:TBC:SA:BCIMGRA"},{"id":"stop_point:TBC:SP:1615","name":"Rochefort","fullLabel":"Rochefort (Gradignan)","latitude":"44.7759450","longitude":"-0.6114050","externalCode":"1615","hasWheelchairBoarding":true,"city":"Gradignan","stopAreaId":"stop_area:TBC:SA:BROCHE"},{"id":"stop_point:TBC:SP:1618","name":"Eglise de Gradignan","fullLabel":"Eglise de Gradignan (Gradignan)","latitude":"44.7722760","longitude":"-0.6144590","externalCode":"1618","hasWheelchairBoarding":true,"city":"Gradignan","stopAreaId":"stop_area:TBC:SA:BEGGRA"},{"id":"stop_point:TBC:SP:488","name":"Prof. Bernard","fullLabel":"Prof. Bernard (Gradignan)","latitude":"44.7708480","longitude":"-0.6154170","externalCode":"488","hasWheelchairBoarding":true,"city":"Gradignan","stopAreaId":"stop_area:TBC:SA:BPBERN"},{"id":"stop_point:TBC:SP:571","name":"Edouard Michel","fullLabel":"Edouard Michel (Gradignan)","latitude":"44.7685800","longitude":"-0.6169790","externalCode":"571","hasWheelchairBoarding":false,"city":"Gradignan","stopAreaId":"stop_area:TBC:SA:BEMICH"},{"id":"stop_point:TBC:SP:1350","name":"Prieur\u00e9 de Cayac","fullLabel":"Prieur\u00e9 de Cayac (Gradignan)","latitude":"44.7667860","longitude":"-0.6183560","externalCode":"1350","hasWheelchairBoarding":false,"city":"Gradignan","stopAreaId":"stop_area:TBC:SA:BCAYAC"},{"id":"stop_point:TBC:SP:649","name":"Lyc\u00e9e des Graves (Parking Lyc\u00e9e)","fullLabel":"Lyc\u00e9e des Graves (Parking Lyc\u00e9e) (Gradignan)","latitude":"44.7608280","longitude":"-0.6219700","externalCode":"649","hasWheelchairBoarding":true,"city":"Gradignan","stopAreaId":"stop_area:TBC:SA:BLGRAV"},{"id":"stop_point:TBC:SP:1616","name":"Beausoleil","fullLabel":"Beausoleil (Gradignan)","latitude":"44.7576520","longitude":"-0.6251050","externalCode":"1616","city":"Gradignan","hasWheelchairBoarding":true,"stopAreaId":"stop_area:TBC:SA:BBEAUSO"}],"externalCode":"10","stopPointOrder":["stop_point:TBC:SP:4124","stop_point:TBC:SP:8132","stop_point:TBC:SP:2263","stop_point:TBC:SP:3585","stop_point:TBC:SP:534","stop_point:TBC:SP:5770","stop_point:TBC:SP:5796","stop_point:TBC:SP:5793","stop_point:TBC:SP:1224","stop_point:TBC:SP:663","stop_point:TBC:SP:2238","stop_point:TBC:SP:5935","stop_point:TBC:SP:2400","stop_point:TBC:SP:3217","stop_point:TBC:SP:3219","stop_point:TBC:SP:3220","stop_point:TBC:SP:6505","stop_point:TBC:SP:8101","stop_point:TBC:SP:7801","stop_point:TBC:SP:8791","stop_point:TBC:SP:1614","stop_point:TBC:SP:1671","stop_point:TBC:SP:562","stop_point:TBC:SP:475","stop_point:TBC:SP:5629","stop_point:TBC:SP:1254","stop_point:TBC:SP:446","stop_point:TBC:SP:8713","stop_point:TBC:SP:9054","stop_point:TBC:SP:9053","stop_point:TBC:SP:9055","stop_point:TBC:SP:3440","stop_point:TBC:SP:4105","stop_point:TBC:SP:555","stop_point:TBC:SP:1621","stop_point:TBC:SP:1615","stop_point:TBC:SP:1618","stop_point:TBC:SP:488","stop_point:TBC:SP:571","stop_point:TBC:SP:1350","stop_point:TBC:SP:649","stop_point:TBC:SP:1616"]},{"id":"route:TBC:10_R","name":"BORDEAUX Jardin Botanique","start":"BORDEAUX Jardin Botanique","end":"","stopPoints":[{"id":"stop_point:TBC:SP:9054","name":"Village 5 Terminus","fullLabel":"Village 5 Terminus (Gradignan)","latitude":"44.7922950","longitude":"-0.6146710","externalCode":"9054","hasWheelchairBoarding":false,"city":"Gradignan","stopAreaId":"stop_area:TBC:SA:BVILLA5"},{"id":"stop_point:TBC:SP:1616","name":"Beausoleil","fullLabel":"Beausoleil (Gradignan)","latitude":"44.7576520","longitude":"-0.6251050","externalCode":"1616","city":"Gradignan","hasWheelchairBoarding":true,"stopAreaId":"stop_area:TBC:SA:BBEAUSO"},{"id":"stop_point:TBC:SP:1648","name":"Lyc\u00e9e des Graves","fullLabel":"Lyc\u00e9e des Graves (Gradignan)","latitude":"44.7614630","longitude":"-0.6221120","externalCode":"1648","hasWheelchairBoarding":true,"city":"Gradignan","stopAreaId":"stop_area:TBC:SA:BLGRAV"},{"id":"stop_point:TBC:SP:8921","name":"Prieur\u00e9 de Cayac","fullLabel":"Prieur\u00e9 de Cayac (Gradignan)","latitude":"44.7662220","longitude":"-0.6190790","externalCode":"8921","hasWheelchairBoarding":false,"city":"Gradignan","stopAreaId":"stop_area:TBC:SA:BCAYAC"},{"id":"stop_point:TBC:SP:6328","name":"Mozart","fullLabel":"Mozart (Gradignan)","latitude":"44.7686980","longitude":"-0.6202510","externalCode":"6328","hasWheelchairBoarding":false,"city":"Gradignan","stopAreaId":"stop_area:TBC:SA:BMOZART"},{"id":"stop_point:TBC:SP:3810","name":"L'Ermitage","fullLabel":"L'Ermitage (Gradignan)","latitude":"44.7734020","longitude":"-0.6208190","externalCode":"3810","hasWheelchairBoarding":true,"city":"Gradignan","stopAreaId":"stop_area:TBC:SA:BERMIT"},{"id":"stop_point:TBC:SP:8922","name":"Eglise de Gradignan","fullLabel":"Eglise de Gradignan (Gradignan)","latitude":"44.7746450","longitude":"-0.6145100","externalCode":"8922","hasWheelchairBoarding":false,"city":"Gradignan","stopAreaId":"stop_area:TBC:SA:BEGGRA"},{"id":"stop_point:TBC:SP:916","name":"Rochefort","fullLabel":"Rochefort (Gradignan)","latitude":"44.7761490","longitude":"-0.6112030","externalCode":"916","hasWheelchairBoarding":true,"city":"Gradignan","stopAreaId":"stop_area:TBC:SA:BROCHE"},{"id":"stop_point:TBC:SP:4044","name":"Cimeti\u00e8re de Gradignan","fullLabel":"Cimeti\u00e8re de Gradignan (Gradignan)","latitude":"44.7792760","longitude":"-0.6092780","externalCode":"4044","hasWheelchairBoarding":true,"city":"Gradignan","stopAreaId":"stop_area:TBC:SA:BCIMGRA"},{"id":"stop_point:TBC:SP:846","name":"Lange","fullLabel":"Lange (Gradignan)","latitude":"44.7816020","longitude":"-0.6078830","externalCode":"846","hasWheelchairBoarding":true,"city":"Gradignan","stopAreaId":"stop_area:TBC:SA:BLANGE2"},{"id":"stop_point:TBC:SP:4106","name":"M\u00e9sanges","fullLabel":"M\u00e9sanges (Gradignan)","latitude":"44.7842470","longitude":"-0.6082940","externalCode":"4106","hasWheelchairBoarding":false,"city":"Gradignan","stopAreaId":"stop_area:TBC:SA:BMESANG"},{"id":"stop_point:TBC:SP:3439","name":"Eurofac","fullLabel":"Eurofac (Gradignan)","latitude":"44.7881780","longitude":"-0.6115710","externalCode":"3439","hasWheelchairBoarding":false,"city":"Gradignan","stopAreaId":"stop_area:TBC:SA:BEUROF"},{"id":"stop_point:TBC:SP:3323","name":"Village 6 IUT","fullLabel":"Village 6 IUT (Gradignan)","latitude":"44.7913420","longitude":"-0.6129510","externalCode":"3323","hasWheelchairBoarding":true,"city":"Gradignan","stopAreaId":"stop_area:TBC:SA:BV6IUT"},{"id":"stop_point:TBC:SP:8712","name":"STAPS","fullLabel":"STAPS (Pessac)","latitude":"44.7937850","longitude":"-0.6154250","externalCode":"8712","hasWheelchairBoarding":false,"city":"Pessac","stopAreaId":"stop_area:TBC:SA:BSTAPS"},{"id":"stop_point:TBC:SP:1506","name":"Montaigne - Montesquieu","fullLabel":"Montaigne - Montesquieu (Pessac)","latitude":"44.7964370","longitude":"-0.6139750","externalCode":"1506","hasWheelchairBoarding":false,"city":"Pessac","stopAreaId":"stop_area:TBC:SA:BMMQUIE"},{"id":"stop_point:TBC:SP:1207","name":"Bardanac","fullLabel":"Bardanac (Pessac)","latitude":"44.7961060","longitude":"-0.6091690","externalCode":"1207","hasWheelchairBoarding":true,"city":"Pessac","stopAreaId":"stop_area:TBC:SA:BBARDAN"},{"id":"stop_point:TBC:SP:93","name":"La Paill\u00e8re","fullLabel":"La Paill\u00e8re (Pessac)","latitude":"44.7955500","longitude":"-0.6046650","externalCode":"93","hasWheelchairBoarding":true,"city":"Pessac","stopAreaId":"stop_area:TBC:SA:BLAPAIL"},{"id":"stop_point:TBC:SP:841","name":"Ecole de Management","fullLabel":"Ecole de Management (Talence)","latitude":"44.7965430","longitude":"-0.6024000","externalCode":"841","hasWheelchairBoarding":true,"city":"Talence","stopAreaId":"stop_area:TBC:SA:BMANAG"},{"id":"stop_point:TBC:SP:451","name":"CREPS","fullLabel":"CREPS (Talence)","latitude":"44.7989490","longitude":"-0.5985290","externalCode":"451","hasWheelchairBoarding":true,"city":"Talence","stopAreaId":"stop_area:TBC:SA:BCREPS"},{"id":"stop_point:TBC:SP:2633","name":"Avenue de l'Universit\u00e9","fullLabel":"Avenue de l'Universit\u00e9 (Talence)","latitude":"44.8012010","longitude":"-0.5946860","externalCode":"2633","hasWheelchairBoarding":true,"city":"Talence","stopAreaId":"stop_area:TBC:SA:BAUNIV"},{"id":"stop_point:TBC:SP:1634","name":"Lyc\u00e9e Victor Louis","fullLabel":"Lyc\u00e9e Victor Louis (Talence)","latitude":"44.8029410","longitude":"-0.5932530","externalCode":"1634","hasWheelchairBoarding":true,"city":"Talence","stopAreaId":"stop_area:TBC:SA:BLVLOUI"},{"id":"stop_point:TBC:SP:371","name":"Peixotto","fullLabel":"Peixotto (Talence)","latitude":"44.8065310","longitude":"-0.5917860","externalCode":"371","hasWheelchairBoarding":false,"city":"Talence","stopAreaId":"stop_area:TBT:SA:TPEIXOT"},{"id":"stop_point:TBC:SP:7802","name":"M\u00e9diath\u00e8que","fullLabel":"M\u00e9diath\u00e8que (Talence)","latitude":"44.8070510","longitude":"-0.5890850","externalCode":"7802","hasWheelchairBoarding":true,"city":"Talence","stopAreaId":"stop_area:TBC:SA:BMEDIA"},{"id":"stop_point:TBC:SP:7701","name":"Mairie de Talence","fullLabel":"Mairie de Talence (Talence)","latitude":"44.8087270","longitude":"-0.5871410","externalCode":"7701","hasWheelchairBoarding":true,"city":"Talence","stopAreaId":"stop_area:TBC:SA:BPARNO"},{"id":"stop_point:TBC:SP:5633","name":"Dourout","fullLabel":"Dourout (Talence)","latitude":"44.8087730","longitude":"-0.5829280","externalCode":"5633","hasWheelchairBoarding":false,"city":"Talence","stopAreaId":"stop_area:TBC:SA:BDOURO"},{"id":"stop_point:TBC:SP:49","name":"Chemin de Suzon","fullLabel":"Chemin de Suzon (Talence)","latitude":"44.8113340","longitude":"-0.5823440","externalCode":"49","hasWheelchairBoarding":true,"city":"Talence","stopAreaId":"stop_area:TBC:SA:BCSUZO"},{"id":"stop_point:TBC:SP:575","name":"Duplantier","fullLabel":"Duplantier (Talence)","latitude":"44.8146250","longitude":"-0.5806170","externalCode":"575","hasWheelchairBoarding":true,"city":"Talence","stopAreaId":"stop_area:TBC:SA:BDUPLAN"},{"id":"stop_point:TBC:SP:3218","name":"Pont de Cauder\u00e8s","fullLabel":"Pont de Cauder\u00e8s (Talence)","latitude":"44.8166670","longitude":"-0.5765560","externalCode":"3218","hasWheelchairBoarding":true,"city":"Talence","stopAreaId":"stop_area:TBC:SA:BPCAUDE"},{"id":"stop_point:TBC:SP:2348","name":"Boulevard Roosevelt","fullLabel":"Boulevard Roosevelt (Bordeaux)","latitude":"44.8159080","longitude":"-0.5746590","externalCode":"2348","hasWheelchairBoarding":true,"city":"Bordeaux","stopAreaId":"stop_area:TBC:SA:BROOSEV"},{"id":"stop_point:TBC:SP:3141","name":"Barri\u00e8re de Toulouse (Bd Albert 1er)","fullLabel":"Barri\u00e8re de Toulouse (Bd Albert 1er) (Bordeaux)","latitude":"44.8145460","longitude":"-0.5719010","externalCode":"3141","hasWheelchairBoarding":true,"city":"Bordeaux","stopAreaId":"stop_area:TBC:SA:BBTOUL2"},{"id":"stop_point:TBC:SP:5792","name":"Barri\u00e8re de B\u00e8gles","fullLabel":"Barri\u00e8re de B\u00e8gles (Bordeaux)","latitude":"44.8139540","longitude":"-0.5647980","externalCode":"5792","hasWheelchairBoarding":false,"city":"Bordeaux","stopAreaId":"stop_area:TBC:SA:BBBEGL"},{"id":"stop_point:TBC:SP:7","name":"Bertin","fullLabel":"Bertin (Bordeaux)","latitude":"44.8158840","longitude":"-0.5656170","externalCode":"7","hasWheelchairBoarding":false,"city":"Bordeaux","stopAreaId":"stop_area:TBC:SA:BBERTI"},{"id":"stop_point:TBC:SP:5794","name":"Rue de B\u00e8gles","fullLabel":"Rue de B\u00e8gles (Bordeaux)","latitude":"44.8179780","longitude":"-0.5638130","externalCode":"5794","hasWheelchairBoarding":false,"city":"Bordeaux","stopAreaId":"stop_area:TBC:SA:BRDBEGL"},{"id":"stop_point:TBC:SP:5795","name":"Billaudel","fullLabel":"Billaudel (Bordeaux)","latitude":"44.8205760","longitude":"-0.5612290","externalCode":"5795","hasWheelchairBoarding":false,"city":"Bordeaux","stopAreaId":"stop_area:TBC:SA:BBILLAU"},{"id":"stop_point:TBC:SP:5769","name":"Gare Saint Jean (sous la Halle)","fullLabel":"Gare Saint Jean (sous la Halle) (Bordeaux)","latitude":"44.8260290","longitude":"-0.5569910","externalCode":"5769","hasWheelchairBoarding":true,"city":"Bordeaux","stopAreaId":"stop_area:TBT:SA:TSJEAN"},{"id":"stop_point:TBC:SP:5770","name":"Gare Saint Jean (rue St Vincent de Paul)","fullLabel":"Gare Saint Jean (rue St Vincent de Paul) (Bordeaux)","latitude":"44.8264540","longitude":"-0.5575240","externalCode":"5770","hasWheelchairBoarding":true,"city":"Bordeaux","stopAreaId":"stop_area:TBT:SA:TSJEAN"},{"id":"stop_point:TBC:SP:698","name":"Saget","fullLabel":"Saget (Bordeaux)","latitude":"44.8292550","longitude":"-0.5564480","externalCode":"698","hasWheelchairBoarding":false,"city":"Bordeaux","stopAreaId":"stop_area:TBC:SA:BSAGET"},{"id":"stop_point:TBC:SP:201","name":"Pont Saint-Jean","fullLabel":"Pont Saint-Jean (Bordeaux)","latitude":"44.8344770","longitude":"-0.5515600","externalCode":"201","hasWheelchairBoarding":true,"city":"Bordeaux","stopAreaId":"stop_area:TBC:SA:BPSJEAN"},{"id":"stop_point:TBC:SP:1101","name":"P\u00f4le emploi Bastide","fullLabel":"P\u00f4le emploi Bastide (Bordeaux)","latitude":"44.8374440","longitude":"-0.5568270","externalCode":"1101","hasWheelchairBoarding":false,"city":"Bordeaux","stopAreaId":"stop_area:TBC:SA:BASSEDI"},{"id":"stop_point:TBC:SP:8142","name":"Stalingrad","fullLabel":"Stalingrad (Bordeaux)","latitude":"44.8401390","longitude":"-0.5593420","externalCode":"8142","hasWheelchairBoarding":true,"city":"Bordeaux","stopAreaId":"stop_area:TBT:SA:TSTALIT"},{"id":"stop_point:TBC:SP:5560","name":"Jardin Botanique","fullLabel":"Jardin Botanique (Bordeaux)","latitude":"44.8434950","longitude":"-0.5567040","externalCode":"5560","hasWheelchairBoarding":true,"city":"Bordeaux","stopAreaId":"stop_area:TBT:SA:TJARDI"},{"id":"stop_point:TBC:SP:4124","name":"Jardin Botanique Terminus","fullLabel":"Jardin Botanique Terminus (Bordeaux)","latitude":"44.8429700","longitude":"-0.5562150","externalCode":"4124","city":"Bordeaux","hasWheelchairBoarding":true,"stopAreaId":"stop_area:TBT:SA:TJARDI"}],"externalCode":"10","stopPointOrder":["stop_point:TBC:SP:9054","stop_point:TBC:SP:1616","stop_point:TBC:SP:1648","stop_point:TBC:SP:8921","stop_point:TBC:SP:6328","stop_point:TBC:SP:3810","stop_point:TBC:SP:8922","stop_point:TBC:SP:916","stop_point:TBC:SP:4044","stop_point:TBC:SP:846","stop_point:TBC:SP:4106","stop_point:TBC:SP:3439","stop_point:TBC:SP:3323","stop_point:TBC:SP:8712","stop_point:TBC:SP:1506","stop_point:TBC:SP:1207","stop_point:TBC:SP:93","stop_point:TBC:SP:841","stop_point:TBC:SP:451","stop_point:TBC:SP:2633","stop_point:TBC:SP:1634","stop_point:TBC:SP:371","stop_point:TBC:SP:7802","stop_point:TBC:SP:7701","stop_point:TBC:SP:5633","stop_point:TBC:SP:49","stop_point:TBC:SP:575","stop_point:TBC:SP:3218","stop_point:TBC:SP:2348","stop_point:TBC:SP:3141","stop_point:TBC:SP:5792","stop_point:TBC:SP:7","stop_point:TBC:SP:5794","stop_point:TBC:SP:5795","stop_point:TBC:SP:5769","stop_point:TBC:SP:5770","stop_point:TBC:SP:698","stop_point:TBC:SP:201","stop_point:TBC:SP:1101","stop_point:TBC:SP:8142","stop_point:TBC:SP:5560","stop_point:TBC:SP:4124"]}],"externalCode":"10","isSpecial":false,"isChartered":false,"isHidden":false,"isArchived":false,"isPictoCrossedActif":false,"color":"0086CB","textColor":"FFFFFF","picto":"https:\/\/ws.infotbm.com\/uploads\/network\/line\/images\/60a6cfd04e3ae_10.svg","pictoFile":null,"pictoFileCrossed":null,"lineSchedules":[{"title":null,"begin":"2021-08-30T00:00:00+02:00","end":"2022-07-03T00:00:00+02:00","frequency":"10 mn (sam :matin 15 \u00e0 20 mn - apr\u00e9s midi :12 mn , dim :matin 30 mn - apr\u00e9s midi:20 mn)","navigationAmplitude":"5h \u00e0 0h15 (0h45 les jeu,ven,sam)","services":"Descente \u00e0 la demande apr\u00e8s 22h00.","pdf":"https:\/\/ws.infotbm.com\/uploads\/network\/line\/files\/610a5ca32c870_Ligne 10_web.pdf"},{"title":null,"begin":"2021-07-05T00:00:00+02:00","end":"2021-08-29T00:00:00+02:00","frequency":"10 \u00e0 15 mn (sam : 15 \u00e0 20 mn, dim : 30 mn)","navigationAmplitude":"5h00 \u00e0 0h15 (0h45 les jeu, ven, sam)","services":"Descente \u00e0 la demande apr\u00e8s 22h00.","pdf":"https:\/\/ws.infotbm.com\/uploads\/network\/line\/files\/60cc894004fab_Ligne 10_web.pdf"}],"lineMaps":[{"start":"2021-08-02T00:00:00+02:00","end":null,"thermometer":"https:\/\/ws.infotbm.com\/uploads\/network\/line\/files\/610ba9a28d225_THERMO_10_DEV.pdf","thermometerImage":"https:\/\/ws.infotbm.com\/uploads\/network\/line\/files\/610bd5fc9fb75_THERMO_10_DEV.png","kml":"https:\/\/ws.infotbm.com\/uploads\/network\/line\/kml\/5e206755a21c7_10.kmz"}],"lineKmls":[{"start":"2022-02-12T00:00:00+01:00","end":null,"kml":"https:\/\/ws.infotbm.com\/uploads\/network\/line\/kml\/61f7c5bf95829_10_220212_P1.kmz"}],"bgColor":"0086CB","futureLineMaps":[{"start":"2021-08-02T00:00:00+02:00","end":null,"thermometer":"https:\/\/ws.infotbm.com\/uploads\/network\/line\/files\/610ba9a28d225_THERMO_10_DEV.pdf","thermometerImage":"https:\/\/ws.infotbm.com\/uploads\/network\/line\/files\/610bd5fc9fb75_THERMO_10_DEV.png","kml":"https:\/\/ws.infotbm.com\/uploads\/network\/line\/kml\/5e206755a21c7_10.kmz"}],"terminus":[{"route":"route:TBC:10","stopPoints":[{"id":"stop_point:TBC:SP:1616","name":"Beausoleil","fullLabel":"Beausoleil (Gradignan)","latitude":"44.7576520","longitude":"-0.6251050","externalCode":"1616","city":"Gradignan","hasWheelchairBoarding":true}]},{"route":"route:TBC:10_R","stopPoints":[{"id":"stop_point:TBC:SP:4124","name":"Jardin Botanique Terminus","fullLabel":"Jardin Botanique Terminus (Bordeaux)","latitude":"44.8429700","longitude":"-0.5562150","externalCode":"4124","city":"Bordeaux","hasWheelchairBoarding":true}]}]}