{"id":"line:TBT:62","name":"Tram D","code":"D","type":"Tramway","routes":[{"id":"route:TBT:62","name":"EYSINES Cantinolle","start":"EYSINES Cantinolle","end":"Mairie du Bouscat","stopPoints":[{"id":"stop_point:TBT:SP:3712","name":"Porte de Bourgogne","fullLabel":"Porte de Bourgogne (Bordeaux)","latitude":"44.8372480","longitude":"-0.5662900","externalCode":"3712","hasWheelchairBoarding":true,"city":"Bordeaux","stopAreaId":"stop_area:TBT:SA:TBRGA"},{"id":"stop_point:TBT:SP:7351","name":"Carle Vernet","fullLabel":"Carle Vernet (Bordeaux)","latitude":"44.8199110","longitude":"-0.5504750","externalCode":"7351","city":"Bordeaux","hasWheelchairBoarding":true,"stopAreaId":"stop_area:TBT:SA:TVERNT"},{"id":"stop_point:TBT:SP:5434","name":"Belcier","fullLabel":"Belcier (Bordeaux)","latitude":"44.8225530","longitude":"-0.5521360","externalCode":"5434","hasWheelchairBoarding":true,"city":"Bordeaux","stopAreaId":"stop_area:TBT:SA:TBELCI"},{"id":"stop_point:TBT:SP:3765","name":"Gare Saint-Jean","fullLabel":"Gare Saint-Jean (Bordeaux)","latitude":"44.8259180","longitude":"-0.5568070","externalCode":"3765","hasWheelchairBoarding":true,"city":"Bordeaux","stopAreaId":"stop_area:TBT:SA:TSJEAN"},{"id":"stop_point:TBT:SP:3766","name":"Tauzia","fullLabel":"Tauzia (Bordeaux)","latitude":"44.8290880","longitude":"-0.5585530","externalCode":"3766","hasWheelchairBoarding":true,"city":"Bordeaux","stopAreaId":"stop_area:TBT:SA:TTAUZI"},{"id":"stop_point:TBT:SP:3768","name":"Sainte-Croix","fullLabel":"Sainte-Croix (Bordeaux)","latitude":"44.8318720","longitude":"-0.5594380","externalCode":"3768","hasWheelchairBoarding":true,"city":"Bordeaux","stopAreaId":"stop_area:TBT:SA:TCROIX"},{"id":"stop_point:TBT:SP:3770","name":"Saint-Michel","fullLabel":"Saint-Michel (Bordeaux)","latitude":"44.8344940","longitude":"-0.5633790","externalCode":"3770","hasWheelchairBoarding":true,"city":"Bordeaux","stopAreaId":"stop_area:TBT:SA:TSMICH"},{"id":"stop_point:TBT:SP:3772","name":"Porte de Bourgogne","fullLabel":"Porte de Bourgogne (Bordeaux)","latitude":"44.8371910","longitude":"-0.5664000","externalCode":"3772","hasWheelchairBoarding":true,"city":"Bordeaux","stopAreaId":"stop_area:TBT:SA:TBRGA"},{"id":"stop_point:TBT:SP:3774","name":"Place de la Bourse","fullLabel":"Place de la Bourse (Bordeaux)","latitude":"44.8415830","longitude":"-0.5696560","externalCode":"3774","hasWheelchairBoarding":true,"city":"Bordeaux","stopAreaId":"stop_area:TBT:SA:TBOURS"},{"id":"stop_point:TBT:SP:3776","name":"Quinconces","fullLabel":"Quinconces (Bordeaux)","latitude":"44.8440270","longitude":"-0.5738270","externalCode":"3776","hasWheelchairBoarding":true,"city":"Bordeaux","stopAreaId":"stop_area:TBT:SA:TQUIN_B"},{"id":"stop_point:TBT:SP:8322","name":"Fondaud\u00e8ge - Mus\u00e9um","fullLabel":"Fondaud\u00e8ge - Mus\u00e9um (Bordeaux)","latitude":"44.8467310","longitude":"-0.5802320","externalCode":"8322","hasWheelchairBoarding":true,"city":"Bordeaux","stopAreaId":"stop_area:TBT:SA:TFONDAU"},{"id":"stop_point:TBT:SP:8324","name":"Croix de seguey","fullLabel":"Croix de seguey (Bordeaux)","latitude":"44.8500790","longitude":"-0.5859570","externalCode":"8324","hasWheelchairBoarding":true,"city":"Bordeaux","stopAreaId":"stop_area:TBT:SA:TSEGUEY"},{"id":"stop_point:TBT:SP:8326","name":"Barri\u00e8re du M\u00e9doc","fullLabel":"Barri\u00e8re du M\u00e9doc (Bordeaux)","latitude":"44.8536480","longitude":"-0.5932170","externalCode":"8326","hasWheelchairBoarding":true,"city":"Bordeaux","stopAreaId":"stop_area:TBT:SA:TBMEDOC"},{"id":"stop_point:TBT:SP:8328","name":"Courbet","fullLabel":"Courbet (Le Bouscat)","latitude":"44.8569460","longitude":"-0.5971160","externalCode":"8328","hasWheelchairBoarding":true,"city":"Le Bouscat","stopAreaId":"stop_area:TBT:SA:TCOURB"},{"id":"stop_point:TBT:SP:8330","name":"Calypso","fullLabel":"Calypso (Le Bouscat)","latitude":"44.8613580","longitude":"-0.6008710","externalCode":"8330","hasWheelchairBoarding":true,"city":"Le Bouscat","stopAreaId":"stop_area:TBT:SA:TCALYPS"},{"id":"stop_point:TBT:SP:8332","name":"Mairie du Bouscat","fullLabel":"Mairie du Bouscat (Le Bouscat)","latitude":"44.8656310","longitude":"-0.6052640","externalCode":"8332","hasWheelchairBoarding":true,"city":"Le Bouscat","stopAreaId":"stop_area:TBT:SA:TMBOUS"},{"id":"stop_point:TBT:SP:8342","name":"Les Ecus","fullLabel":"Les Ecus (Le Bouscat)","latitude":"44.8691050","longitude":"-0.6093020","externalCode":"8342","hasWheelchairBoarding":true,"city":"Le Bouscat","stopAreaId":"stop_area:TBT:SA:TLESEC"},{"id":"stop_point:TBT:SP:8344","name":"Sainte Germaine","fullLabel":"Sainte Germaine (Bruges)","latitude":"44.8716720","longitude":"-0.6146130","externalCode":"8344","hasWheelchairBoarding":true,"city":"Bruges","stopAreaId":"stop_area:TBT:SA:TGERMA"},{"id":"stop_point:TBT:SP:8346","name":"Champ de Courses - Treulon","fullLabel":"Champ de Courses - Treulon (Eysines)","latitude":"44.8765280","longitude":"-0.6218600","externalCode":"8346","hasWheelchairBoarding":true,"city":"Eysines","stopAreaId":"stop_area:TBT:SA:TTREULO"},{"id":"stop_point:TBT:SP:8347","name":"Hippodrome","fullLabel":"Hippodrome (Le Bouscat)","latitude":"44.8738350","longitude":"-0.6284160","externalCode":"8347","city":"Le Bouscat","hasWheelchairBoarding":true,"stopAreaId":"stop_area:TBT:SA:TTHIPPO"},{"id":"stop_point:TBT:SP:8348","name":"Hippodrome","fullLabel":"Hippodrome (Le Bouscat)","latitude":"44.8739160","longitude":"-0.6287130","externalCode":"8348","hasWheelchairBoarding":true,"city":"Le Bouscat","stopAreaId":"stop_area:TBT:SA:TTHIPPO"},{"id":"stop_point:TBT:SP:8350","name":"Simone Veil","fullLabel":"Simone Veil (Eysines)","latitude":"44.8797560","longitude":"-0.6369630","externalCode":"8350","hasWheelchairBoarding":true,"city":"Eysines","stopAreaId":"stop_area:TBT:SA:TSVEIL"},{"id":"stop_point:TBT:SP:8352","name":"Picot","fullLabel":"Picot (Eysines)","latitude":"44.8814560","longitude":"-0.6414850","externalCode":"8352","hasWheelchairBoarding":true,"city":"Eysines","stopAreaId":"stop_area:TBT:SA:TPICOT"},{"id":"stop_point:TBT:SP:8354","name":"Eysines Centre","fullLabel":"Eysines Centre (Eysines)","latitude":"44.8840140","longitude":"-0.6500440","externalCode":"8354","hasWheelchairBoarding":true,"city":"Eysines","stopAreaId":"stop_area:TBT:SA:TEYSINE"},{"id":"stop_point:TBT:SP:8356","name":"Les Sources","fullLabel":"Les Sources (Eysines)","latitude":"44.8881530","longitude":"-0.6601140","externalCode":"8356","hasWheelchairBoarding":true,"city":"Eysines","stopAreaId":"stop_area:TBT:SA:TSOURCE"},{"id":"stop_point:TBT:SP:8358","name":"Cantinolle","fullLabel":"Cantinolle (Eysines)","latitude":"44.8920200","longitude":"-0.6674670","externalCode":"8358","city":"Eysines","hasWheelchairBoarding":true,"stopAreaId":"stop_area:TBT:SA:TTERCAN"}],"externalCode":"62","stopPointOrder":["stop_point:TBT:SP:3712","stop_point:TBT:SP:7351","stop_point:TBT:SP:5434","stop_point:TBT:SP:3765","stop_point:TBT:SP:3766","stop_point:TBT:SP:3768","stop_point:TBT:SP:3770","stop_point:TBT:SP:3772","stop_point:TBT:SP:3774","stop_point:TBT:SP:3776","stop_point:TBT:SP:8322","stop_point:TBT:SP:8324","stop_point:TBT:SP:8326","stop_point:TBT:SP:8328","stop_point:TBT:SP:8330","stop_point:TBT:SP:8332","stop_point:TBT:SP:8342","stop_point:TBT:SP:8344","stop_point:TBT:SP:8346","stop_point:TBT:SP:8347","stop_point:TBT:SP:8348","stop_point:TBT:SP:8350","stop_point:TBT:SP:8352","stop_point:TBT:SP:8354","stop_point:TBT:SP:8356","stop_point:TBT:SP:8358"]},{"id":"route:TBT:62_R","name":"BORDEAUX Carle Vernet","start":"BORDEAUX Carle Vernet","end":"","stopPoints":[{"id":"stop_point:TBT:SP:8347","name":"Hippodrome","fullLabel":"Hippodrome (Le Bouscat)","latitude":"44.8738350","longitude":"-0.6284160","externalCode":"8347","city":"Le Bouscat","hasWheelchairBoarding":true,"stopAreaId":"stop_area:TBT:SA:TTHIPPO"},{"id":"stop_point:TBT:SP:8358","name":"Cantinolle","fullLabel":"Cantinolle (Eysines)","latitude":"44.8920200","longitude":"-0.6674670","externalCode":"8358","city":"Eysines","hasWheelchairBoarding":true,"stopAreaId":"stop_area:TBT:SA:TTERCAN"},{"id":"stop_point:TBT:SP:8357","name":"Les Sources","fullLabel":"Les Sources (Eysines)","latitude":"44.8878760","longitude":"-0.6597660","externalCode":"8357","hasWheelchairBoarding":true,"city":"Eysines","stopAreaId":"stop_area:TBT:SA:TSOURCE"},{"id":"stop_point:TBT:SP:8355","name":"Eysines Centre","fullLabel":"Eysines Centre (Eysines)","latitude":"44.8837830","longitude":"-0.6496740","externalCode":"8355","hasWheelchairBoarding":true,"city":"Eysines","stopAreaId":"stop_area:TBT:SA:TEYSINE"},{"id":"stop_point:TBT:SP:8353","name":"Picot","fullLabel":"Picot (Eysines)","latitude":"44.8813080","longitude":"-0.6410320","externalCode":"8353","hasWheelchairBoarding":true,"city":"Eysines","stopAreaId":"stop_area:TBT:SA:TPICOT"},{"id":"stop_point:TBT:SP:8351","name":"Simone Veil","fullLabel":"Simone Veil (Eysines)","latitude":"44.8795540","longitude":"-0.6365440","externalCode":"8351","hasWheelchairBoarding":true,"city":"Eysines","stopAreaId":"stop_area:TBT:SA:TSVEIL"},{"id":"stop_point:TBT:SP:8349","name":"Hippodrome","fullLabel":"Hippodrome (Le Bouscat)","latitude":"44.8739860","longitude":"-0.6282110","externalCode":"8349","hasWheelchairBoarding":true,"city":"Le Bouscat","stopAreaId":"stop_area:TBT:SA:TTHIPPO"},{"id":"stop_point:TBT:SP:8345","name":"Champ de Courses - Treulon","fullLabel":"Champ de Courses - Treulon (Bruges)","latitude":"44.8762510","longitude":"-0.6215120","externalCode":"8345","hasWheelchairBoarding":true,"city":"Bruges","stopAreaId":"stop_area:TBT:SA:TTREULO"},{"id":"stop_point:TBT:SP:8343","name":"Sainte Germaine","fullLabel":"Sainte Germaine (Bruges)","latitude":"44.8713950","longitude":"-0.6142530","externalCode":"8343","hasWheelchairBoarding":true,"city":"Bruges","stopAreaId":"stop_area:TBT:SA:TGERMA"},{"id":"stop_point:TBT:SP:8341","name":"Les Ecus","fullLabel":"Les Ecus (Le Bouscat)","latitude":"44.8689110","longitude":"-0.6088970","externalCode":"8341","hasWheelchairBoarding":true,"city":"Le Bouscat","stopAreaId":"stop_area:TBT:SA:TLESEC"},{"id":"stop_point:TBT:SP:8331","name":"Mairie du Bouscat","fullLabel":"Mairie du Bouscat (Le Bouscat)","latitude":"44.8652970","longitude":"-0.6050140","externalCode":"8331","hasWheelchairBoarding":true,"city":"Le Bouscat","stopAreaId":"stop_area:TBT:SA:TMBOUS"},{"id":"stop_point:TBT:SP:8329","name":"Calypso","fullLabel":"Calypso (Le Bouscat)","latitude":"44.8610620","longitude":"-0.6005480","externalCode":"8329","hasWheelchairBoarding":true,"city":"Le Bouscat","stopAreaId":"stop_area:TBT:SA:TCALYPS"},{"id":"stop_point:TBT:SP:8327","name":"Courbet","fullLabel":"Courbet (Le Bouscat)","latitude":"44.8566000","longitude":"-0.5969540","externalCode":"8327","hasWheelchairBoarding":true,"city":"Le Bouscat","stopAreaId":"stop_area:TBT:SA:TCOURB"},{"id":"stop_point:TBT:SP:8325","name":"Barri\u00e8re du M\u00e9doc","fullLabel":"Barri\u00e8re du M\u00e9doc (Bordeaux)","latitude":"44.8534050","longitude":"-0.5928980","externalCode":"8325","hasWheelchairBoarding":true,"city":"Bordeaux","stopAreaId":"stop_area:TBT:SA:TBMEDOC"},{"id":"stop_point:TBT:SP:8323","name":"Croix de Seguey","fullLabel":"Croix de Seguey (Bordeaux)","latitude":"44.8498920","longitude":"-0.5856160","externalCode":"8323","hasWheelchairBoarding":true,"city":"Bordeaux","stopAreaId":"stop_area:TBT:SA:TSEGUEY"},{"id":"stop_point:TBT:SP:8321","name":"Fondaud\u00e8ge - Mus\u00e9um","fullLabel":"Fondaud\u00e8ge - Mus\u00e9um (Bordeaux)","latitude":"44.8464710","longitude":"-0.5799240","externalCode":"8321","hasWheelchairBoarding":true,"city":"Bordeaux","stopAreaId":"stop_area:TBT:SA:TFONDAU"},{"id":"stop_point:TBT:SP:5404","name":"Quinconces","fullLabel":"Quinconces (Bordeaux)","latitude":"44.8440120","longitude":"-0.5737120","externalCode":"5404","hasWheelchairBoarding":true,"city":"Bordeaux","stopAreaId":"stop_area:TBT:SA:TQUIN_B"},{"id":"stop_point:TBT:SP:3775","name":"Place de la Bourse","fullLabel":"Place de la Bourse (Bordeaux)","latitude":"44.8415200","longitude":"-0.5696770","externalCode":"3775","hasWheelchairBoarding":true,"city":"Bordeaux","stopAreaId":"stop_area:TBT:SA:TBOURS"},{"id":"stop_point:TBT:SP:3713","name":"Porte de Bourgogne","fullLabel":"Porte de Bourgogne (Bordeaux)","latitude":"44.8371860","longitude":"-0.5662730","externalCode":"3713","hasWheelchairBoarding":true,"city":"Bordeaux","stopAreaId":"stop_area:TBT:SA:TBRGA"},{"id":"stop_point:TBT:SP:3773","name":"Porte de Bourgogne","fullLabel":"Porte de Bourgogne (Bordeaux)","latitude":"44.8371370","longitude":"-0.5663840","externalCode":"3773","hasWheelchairBoarding":true,"city":"Bordeaux","stopAreaId":"stop_area:TBT:SA:TBRGA"},{"id":"stop_point:TBT:SP:3771","name":"Saint-Michel","fullLabel":"Saint-Michel (Bordeaux)","latitude":"44.8344580","longitude":"-0.5633890","externalCode":"3771","hasWheelchairBoarding":true,"city":"Bordeaux","stopAreaId":"stop_area:TBT:SA:TSMICH"},{"id":"stop_point:TBT:SP:3769","name":"Sainte-Croix","fullLabel":"Sainte-Croix (Bordeaux)","latitude":"44.8318090","longitude":"-0.5594220","externalCode":"3769","hasWheelchairBoarding":true,"city":"Bordeaux","stopAreaId":"stop_area:TBT:SA:TCROIX"},{"id":"stop_point:TBT:SP:3767","name":"Tauzia","fullLabel":"Tauzia (Bordeaux)","latitude":"44.8290350","longitude":"-0.5585360","externalCode":"3767","hasWheelchairBoarding":true,"city":"Bordeaux","stopAreaId":"stop_area:TBT:SA:TTAUZI"},{"id":"stop_point:TBT:SP:5433","name":"Gare Saint-Jean","fullLabel":"Gare Saint-Jean (Bordeaux)","latitude":"44.8259170","longitude":"-0.5568450","externalCode":"5433","hasWheelchairBoarding":true,"city":"Bordeaux","stopAreaId":"stop_area:TBT:SA:TSJEAN"},{"id":"stop_point:TBT:SP:5435","name":"Belcier","fullLabel":"Belcier (Bordeaux)","latitude":"44.8225330","longitude":"-0.5521850","externalCode":"5435","hasWheelchairBoarding":true,"city":"Bordeaux","stopAreaId":"stop_area:TBT:SA:TBELCI"},{"id":"stop_point:TBT:SP:7351","name":"Carle Vernet","fullLabel":"Carle Vernet (Bordeaux)","latitude":"44.8199110","longitude":"-0.5504750","externalCode":"7351","city":"Bordeaux","hasWheelchairBoarding":true,"stopAreaId":"stop_area:TBT:SA:TVERNT"}],"externalCode":"62","stopPointOrder":["stop_point:TBT:SP:8347","stop_point:TBT:SP:8358","stop_point:TBT:SP:8357","stop_point:TBT:SP:8355","stop_point:TBT:SP:8353","stop_point:TBT:SP:8351","stop_point:TBT:SP:8349","stop_point:TBT:SP:8345","stop_point:TBT:SP:8343","stop_point:TBT:SP:8341","stop_point:TBT:SP:8331","stop_point:TBT:SP:8329","stop_point:TBT:SP:8327","stop_point:TBT:SP:8325","stop_point:TBT:SP:8323","stop_point:TBT:SP:8321","stop_point:TBT:SP:5404","stop_point:TBT:SP:3775","stop_point:TBT:SP:3713","stop_point:TBT:SP:3773","stop_point:TBT:SP:3771","stop_point:TBT:SP:3769","stop_point:TBT:SP:3767","stop_point:TBT:SP:5433","stop_point:TBT:SP:5435","stop_point:TBT:SP:7351"]}],"externalCode":"62","isSpecial":false,"isChartered":false,"isHidden":false,"isArchived":false,"isPictoCrossedActif":false,"color":"9262A3","textColor":"FFFFFF","picto":"https:\/\/ws.infotbm.com\/uploads\/network\/line\/images\/60a681e05a5ac_D.svg","pictoFile":null,"pictoFileCrossed":null,"lineSchedules":[{"title":null,"begin":"2021-07-05T00:00:00+02:00","end":"2021-08-29T00:00:00+02:00","frequency":"7 \u00e0 8 mn (sam :matin :10 \u00e0 15 mn - apr\u00e9s midi: 7 \u00e0 8 mn \/ dim :matin 30 mn - apr\u00e9s midi: 10 \u00e0 20 mn)","navigationAmplitude":"5h \u00e0 0h00 (1h les jeu,ven,sam)","services":null,"pdf":"https:\/\/ws.infotbm.com\/uploads\/network\/line\/files\/60cc5c2f03240_tram_D_2021_\u00e9t\u00e9_WEB.pdf"},{"title":null,"begin":"2021-08-30T00:00:00+02:00","end":"2022-07-03T00:00:00+02:00","frequency":"7 \u00e0 8 mn (sam :matin 7 \u00e0 15 mn - apr\u00e9s midi: 7 \u00e0 8 mn \/ dim :matin 20 \u00e0 30 mn - apr\u00e9s midi: 7 \u00e0 10 mn) -Doubler les temps de Hippodrome \u00e0 Cantinolle","navigationAmplitude":"5h \u00e0 0h00 (1h les jeu,ven,sam)","services":null,"pdf":"https:\/\/ws.infotbm.com\/uploads\/network\/line\/files\/610a42b3124d5_tram_D_sept_2021_HD.pdf"}],"lineMaps":[{"start":"2021-08-02T00:00:00+02:00","end":null,"thermometer":"https:\/\/ws.infotbm.com\/uploads\/network\/line\/files\/610a42b30f0d1_TRAM D.pdf","thermometerImage":"https:\/\/ws.infotbm.com\/uploads\/network\/line\/files\/610a42b31183a_TRAM D.png","kml":"https:\/\/ws.infotbm.com\/uploads\/network\/line\/kml\/5e441c5527592_62.kmz"}],"lineKmls":[{"start":"2020-03-02T00:00:00+01:00","end":null,"kml":"https:\/\/ws.infotbm.com\/uploads\/network\/line\/kml\/5e441c5527592_62.kmz"}],"bgColor":"9262A3","futureLineMaps":[{"start":"2021-08-02T00:00:00+02:00","end":null,"thermometer":"https:\/\/ws.infotbm.com\/uploads\/network\/line\/files\/610a42b30f0d1_TRAM D.pdf","thermometerImage":"https:\/\/ws.infotbm.com\/uploads\/network\/line\/files\/610a42b31183a_TRAM D.png","kml":"https:\/\/ws.infotbm.com\/uploads\/network\/line\/kml\/5e441c5527592_62.kmz"}],"terminus":[{"route":"route:TBT:62","stopPoints":[{"id":"stop_point:TBT:SP:8358","name":"Cantinolle","fullLabel":"Cantinolle (Eysines)","latitude":"44.8920200","longitude":"-0.6674670","externalCode":"8358","city":"Eysines","hasWheelchairBoarding":true},{"id":"stop_point:TBT:SP:8347","name":"Hippodrome","fullLabel":"Hippodrome (Le Bouscat)","latitude":"44.8738350","longitude":"-0.6284160","externalCode":"8347","city":"Le Bouscat","hasWheelchairBoarding":true}]},{"route":"route:TBT:62_R","stopPoints":[{"id":"stop_point:TBT:SP:7351","name":"Carle Vernet","fullLabel":"Carle Vernet (Bordeaux)","latitude":"44.8199110","longitude":"-0.5504750","externalCode":"7351","city":"Bordeaux","hasWheelchairBoarding":true}]}]}